[
 {
   "id": 2385,
   "ident": "EGAA",
   "type": "large_airport",
   "name": "Belfast International Airport",
   "latitude_deg": 54.65750122,
   "longitude_deg": -6.215829849,
   "elevation_ft": 268,
   "continent": "EU",
   "iso_country": "GB",
   "iso_region": "GB-NIR",
   "municipality": "Belfast",
   "gps_code": "EGAA",
   "iata_code": "BFS"
 },
 {
   "id": 2387,
   "ident": "EGAC",
   "type": "large_airport",
   "name": "George Best Belfast City Airport",
   "latitude_deg": 54.61809921,
   "longitude_deg": -5.872499943,
   "elevation_ft": 15,
   "continent": "EU",
   "iso_country": "GB",
   "iso_region": "GB-NIR",
   "municipality": "Belfast",
   "gps_code": "EGAC",
   "iata_code": "BHD"
 },
 {
   "id": 2388,
   "ident": "EGAE",
   "type": "medium_airport",
   "name": "City of Derry Airport",
   "latitude_deg": 55.0428009,
   "longitude_deg": -7.161109924,
   "elevation_ft": 22,
   "continent": "EU",
   "iso_country": "GB",
   "iso_region": "GB-NIR",
   "municipality": "Derry",
   "gps_code": "EGAE",
   "iata_code": "LDY"
 },
 {
   "id": 2389,
   "ident": "EGBB",
   "type": "large_airport",
   "name": "Birmingham International Airport",
   "latitude_deg": 52.45389938,
   "longitude_deg": -1.748029947,
   "elevation_ft": 327,
   "continent": "EU",
   "iso_country": "GB",
   "iso_region": "GB-ENG",
   "municipality": "Birmingham",
   "gps_code": "EGBB",
   "iata_code": "BHX"
 },
 {
   "id": 2393,
   "ident": "EGBN",
   "type": "medium_airport",
   "name": "Nottingham Airport",
   "latitude_deg": 52.91999817,
   "longitude_deg": -1.079169989,
   "elevation_ft": 138,
   "continent": "EU",
   "iso_country": "GB",
   "iso_region": "GB-ENG",
   "municipality": "Nottingham",
   "gps_code": "EGBN",
   "iata_code": "NQT"
 },
 {
   "id": 2398,
   "ident": "EGCC",
   "type": "large_airport",
   "name": "Manchester Airport",
   "latitude_deg": 53.35369873,
   "longitude_deg": -2.274950027,
   "elevation_ft": 257,
   "continent": "EU",
   "iso_country": "GB",
   "iso_region": "GB-ENG",
   "municipality": "Manchester",
   "gps_code": "EGCC",
   "iata_code": "MAN"
 },
 {
   "id": 2401,
   "ident": "EGCN",
   "type": "large_airport",
   "name": "Robin Hood Doncaster Sheffield Airport",
   "latitude_deg": 53.48053781,
   "longitude_deg": -1.010656357,
   "elevation_ft": 55,
   "continent": "EU",
   "iso_country": "GB",
   "iso_region": "GB-ENG",
   "municipality": "Doncaster",
   "gps_code": "EGCN",
   "iata_code": "DSA"
 },
 {
   "id": 2411,
   "ident": "EGEC",
   "type": "medium_airport",
   "name": "Campbeltown Airport",
   "latitude_deg": 55.43719864,
   "longitude_deg": -5.686389923,
   "elevation_ft": 42,
   "continent": "EU",
   "iso_country": "GB",
   "iso_region": "GB-SCT",
   "municipality": "Campbeltown",
   "gps_code": "EGEC",
   "iata_code": "CAL"
 },
 {
   "id": 29126,
   "ident": "EGED",
   "type": "medium_airport",
   "name": "Eday Airport",
   "latitude_deg": 59.19060135,
   "longitude_deg": -2.772219896,
   "elevation_ft": 10,
   "continent": "EU",
   "iso_country": "GB",
   "iso_region": "GB-SCT",
   "municipality": "Eday",
   "gps_code": "EGED",
   "iata_code": "EOI"
 },
 {
   "id": 29127,
   "ident": "EGEF",
   "type": "medium_airport",
   "name": "Fair Isle Airport",
   "latitude_deg": 59.53580093,
   "longitude_deg": -1.628059983,
   "elevation_ft": 223,
   "continent": "EU",
   "iso_country": "GB",
   "iso_region": "GB-SCT",
   "municipality": "Fair Isle",
   "gps_code": "EGEF",
   "iata_code": "FIE"
 },
 {
   "id": 2415,
   "ident": "EGFF",
   "type": "large_airport",
   "name": "Cardiff International Airport",
   "latitude_deg": 51.39670181,
   "longitude_deg": -3.343329906,
   "elevation_ft": 220,
   "continent": "EU",
   "iso_country": "GB",
   "iso_region": "GB-WLS",
   "municipality": "Cardiff",
   "gps_code": "EGFF",
   "iata_code": "CWL"
 },
 {
   "id": 2417,
   "ident": "EGGD",
   "type": "large_airport",
   "name": "Bristol International Airport",
   "latitude_deg": 51.38270187,
   "longitude_deg": -2.719089985,
   "elevation_ft": 622,
   "continent": "EU",
   "iso_country": "GB",
   "iso_region": "GB-ENG",
   "municipality": "Bristol",
   "gps_code": "EGGD",
   "iata_code": "BRS"
 },
 {
   "id": 2418,
   "ident": "EGGP",
   "type": "large_airport",
   "name": "Liverpool John Lennon Airport",
   "latitude_deg": 53.33359909,
   "longitude_deg": -2.849720001,
   "elevation_ft": 80,
   "continent": "EU",
   "iso_country": "GB",
   "iso_region": "GB-ENG",
   "municipality": "Liverpool",
   "gps_code": "EGGP",
   "iata_code": "LPL"
 },
 {
   "id": 2419,
   "ident": "EGGW",
   "type": "large_airport",
   "name": "London Luton Airport",
   "latitude_deg": 51.87469864,
   "longitude_deg": -0.368333012,
   "elevation_ft": 526,
   "continent": "EU",
   "iso_country": "GB",
   "iso_region": "GB-ENG",
   "municipality": "London",
   "gps_code": "EGGW",
   "iata_code": "LTN"
 },
 {
   "id": 29139,
   "ident": "EGHC",
   "type": "medium_airport",
   "name": "Land's End Airport",
   "latitude_deg": 50.10279846,
   "longitude_deg": -5.670559883,
   "elevation_ft": 401,
   "continent": "EU",
   "iso_country": "GB",
   "iso_region": "GB-ENG",
   "municipality": "Land's End",
   "gps_code": "EGHC",
   "iata_code": "LEQ"
 },
 {
   "id": 2420,
   "ident": "EGHD",
   "type": "medium_airport",
   "name": "Plymouth City Airport",
   "latitude_deg": 50.42279816,
   "longitude_deg": -4.105830193,
   "elevation_ft": 476,
   "continent": "EU",
   "iso_country": "GB",
   "iso_region": "GB-ENG",
   "municipality": "Plymouth",
   "gps_code": "EGHD",
   "iata_code": "PLH"
 },
 {
   "id": 29140,
   "ident": "EGHE",
   "type": "medium_airport",
   "name": "St. Mary's Airport",
   "latitude_deg": 49.91329956,
   "longitude_deg": -6.291669846,
   "elevation_ft": 116,
   "continent": "EU",
   "iso_country": "GB",
   "iso_region": "GB-ENG",
   "municipality": "St. Mary's",
   "gps_code": "EGHE",
   "iata_code": "ISC"
 },
 {
   "id": 2421,
   "ident": "EGHH",
   "type": "large_airport",
   "name": "Bournemouth Airport",
   "latitude_deg": 50.77999878,
   "longitude_deg": -1.842499971,
   "elevation_ft": 38,
   "continent": "EU",
   "iso_country": "GB",
   "iso_region": "GB-ENG",
   "municipality": "Bournemouth",
   "gps_code": "EGHH",
   "iata_code": "BOH"
 },
 {
   "id": 2422,
   "ident": "EGHI",
   "type": "large_airport",
   "name": "Southampton Airport",
   "latitude_deg": 50.95029831,
   "longitude_deg": -1.35679996,
   "elevation_ft": 44,
   "continent": "EU",
   "iso_country": "GB",
   "iso_region": "GB-ENG",
   "municipality": "Southampton",
   "gps_code": "EGHI",
   "iata_code": "SOU"
 },
 {
   "id": 2404,
   "ident": "EGHQ",
   "type": "medium_airport",
   "name": "Newquay Cornwall Airport",
   "latitude_deg": 50.44060135,
   "longitude_deg": -4.995409966,
   "elevation_ft": 390,
   "continent": "EU",
   "iso_country": "GB",
   "iso_region": "GB-ENG",
   "municipality": "Newquay",
   "gps_code": "EGHQ",
   "iata_code": "NQY"
 },
 {
   "id": 2424,
   "ident": "EGJA",
   "type": "medium_airport",
   "name": "Alderney Airport",
   "latitude_deg": 49.70610046,
   "longitude_deg": -2.214720011,
   "elevation_ft": 290,
   "continent": "EU",
   "iso_country": "GG",
   "iso_region": "GG-U-A",
   "municipality": "Saint Anne",
   "gps_code": "EGJA",
   "iata_code": "ACI"
 },
 {
   "id": 2425,
   "ident": "EGJB",
   "type": "medium_airport",
   "name": "Guernsey Airport",
   "latitude_deg": 49.43500137,
   "longitude_deg": -2.601969957,
   "elevation_ft": 336,
   "continent": "EU",
   "iso_country": "GG",
   "iso_region": "GG-U-A",
   "municipality": "Saint Peter Port",
   "gps_code": "EGJB",
   "iata_code": "GCI"
 },
 {
   "id": 2426,
   "ident": "EGJJ",
   "type": "medium_airport",
   "name": "Jersey Airport",
   "latitude_deg": 49.207901,
   "longitude_deg": -2.195509911,
   "elevation_ft": 277,
   "continent": "EU",
   "iso_country": "JE",
   "iso_region": "JE-U-A",
   "municipality": "Saint Helier",
   "gps_code": "EGJJ",
   "iata_code": "JER"
 },
 {
   "id": 2429,
   "ident": "EGKK",
   "type": "large_airport",
   "name": "London Gatwick Airport",
   "latitude_deg": 51.14810181,
   "longitude_deg": -0.190277994,
   "elevation_ft": 202,
   "continent": "EU",
   "iso_country": "GB",
   "iso_region": "GB-ENG",
   "municipality": "London",
   "gps_code": "EGKK",
   "iata_code": "LGW"
 },
 {
   "id": 2430,
   "ident": "EGLC",
   "type": "large_airport",
   "name": "London City Airport",
   "latitude_deg": 51.50529861,
   "longitude_deg": 0.055277999,
   "elevation_ft": 19,
   "continent": "EU",
   "iso_country": "GB",
   "iso_region": "GB-ENG",
   "municipality": "London",
   "gps_code": "EGLC",
   "iata_code": "LCY"
 },
 {
   "id": 2434,
   "ident": "EGLL",
   "type": "large_airport",
   "name": "London Heathrow Airport",
   "latitude_deg": 51.47060013,
   "longitude_deg": -0.461941004,
   "elevation_ft": 83,
   "continent": "EU",
   "iso_country": "GB",
   "iso_region": "GB-ENG",
   "municipality": "London",
   "gps_code": "EGLL",
   "iata_code": "LHR"
 },
 {
   "id": 2435,
   "ident": "EGMC",
   "type": "medium_airport",
   "name": "Southend Airport",
   "latitude_deg": 51.57139969,
   "longitude_deg": 0.695555985,
   "elevation_ft": 49,
   "continent": "EU",
   "iso_country": "GB",
   "iso_region": "GB-ENG",
   "municipality": "Southend",
   "gps_code": "EGMC",
   "iata_code": "SEN"
 },
 {
   "id": 2436,
   "ident": "EGMD",
   "type": "medium_airport",
   "name": "Lydd Airport",
   "latitude_deg": 50.95610046,
   "longitude_deg": 0.939167023,
   "elevation_ft": 13,
   "continent": "EU",
   "iso_country": "GB",
   "iso_region": "GB-ENG",
   "municipality": "Lydd, Ashford",
   "gps_code": "EGMD",
   "iata_code": "LYX"
 },
 {
   "id": 2441,
   "ident": "EGNH",
   "type": "medium_airport",
   "name": "Blackpool International Airport",
   "latitude_deg": 53.77170181,
   "longitude_deg": -3.028609991,
   "elevation_ft": 34,
   "continent": "EU",
   "iso_country": "GB",
   "iso_region": "GB-ENG",
   "municipality": "Blackpool",
   "gps_code": "EGNH",
   "iata_code": "BLK"
 },
 {
   "id": 2442,
   "ident": "EGNJ",
   "type": "medium_airport",
   "name": "Humberside Airport",
   "latitude_deg": 53.57440186,
   "longitude_deg": -0.350832999,
   "elevation_ft": 121,
   "continent": "EU",
   "iso_country": "GB",
   "iso_region": "GB-ENG",
   "municipality": "Grimsby",
   "gps_code": "EGNJ",
   "iata_code": "HUY"
 },
 {
   "id": 2444,
   "ident": "EGNM",
   "type": "large_airport",
   "name": "Leeds Bradford Airport",
   "latitude_deg": 53.86589813,
   "longitude_deg": -1.660570025,
   "elevation_ft": 681,
   "continent": "EU",
   "iso_country": "GB",
   "iso_region": "GB-ENG",
   "municipality": "Leeds",
   "gps_code": "EGNM",
   "iata_code": "LBA"
 },
 {
   "id": 2446,
   "ident": "EGNR",
   "type": "medium_airport",
   "name": "Hawarden Airport",
   "latitude_deg": 53.17810059,
   "longitude_deg": -2.977780104,
   "elevation_ft": 45,
   "continent": "EU",
   "iso_country": "GB",
   "iso_region": "GB-WLS",
   "municipality": "Hawarden",
   "gps_code": "EGNR",
   "iata_code": "CEG"
 },
 {
   "id": 2447,
   "ident": "EGNS",
   "type": "medium_airport",
   "name": "Isle of Man Airport",
   "latitude_deg": 54.08330154,
   "longitude_deg": -4.623889923,
   "elevation_ft": 52,
   "continent": "EU",
   "iso_country": "IM",
   "iso_region": "IM-U-A",
   "municipality": "Castletown",
   "gps_code": "EGNS",
   "iata_code": "IOM"
 },
 {
   "id": 2448,
   "ident": "EGNT",
   "type": "large_airport",
   "name": "Newcastle Airport",
   "latitude_deg": 55.03749847,
   "longitude_deg": -1.691669941,
   "elevation_ft": 266,
   "continent": "EU",
   "iso_country": "GB",
   "iso_region": "GB-ENG",
   "municipality": "Newcastle",
   "gps_code": "EGNT",
   "iata_code": "NCL"
 },
 {
   "id": 2449,
   "ident": "EGNV",
   "type": "medium_airport",
   "name": "Durham Tees Valley Airport",
   "latitude_deg": 54.50920105,
   "longitude_deg": -1.429409981,
   "elevation_ft": 120,
   "continent": "EU",
   "iso_country": "GB",
   "iso_region": "GB-ENG",
   "municipality": "Durham",
   "gps_code": "EGNV",
   "iata_code": "MME"
 },
 {
   "id": 2450,
   "ident": "EGNX",
   "type": "large_airport",
   "name": "East Midlands Airport",
   "latitude_deg": 52.83110046,
   "longitude_deg": -1.328060031,
   "elevation_ft": 306,
   "continent": "EU",
   "iso_country": "GB",
   "iso_region": "GB-ENG",
   "municipality": "Nottingham",
   "gps_code": "EGNX",
   "iata_code": "EMA"
 },
 {
   "id": 2454,
   "ident": "EGOV",
   "type": "medium_airport",
   "name": "Anglesey Airport",
   "latitude_deg": 53.24810028,
   "longitude_deg": -4.535339832,
   "elevation_ft": 37,
   "continent": "EU",
   "iso_country": "GB",
   "iso_region": "GB-WLS",
   "municipality": "Angelsey",
   "gps_code": "EGOV",
   "iata_code": "VLY"
 },
 {
   "id": 2456,
   "ident": "EGPA",
   "type": "medium_airport",
   "name": "Kirkwall Airport",
   "latitude_deg": 58.95780182,
   "longitude_deg": -2.904999971,
   "elevation_ft": 50,
   "continent": "EU",
   "iso_country": "GB",
   "iso_region": "GB-SCT",
   "municipality": "Orkney Islands",
   "gps_code": "EGPA",
   "iata_code": "KOI"
 },
 {
   "id": 2457,
   "ident": "EGPB",
   "type": "medium_airport",
   "name": "Sumburgh Airport",
   "latitude_deg": 59.87889862,
   "longitude_deg": -1.295560002,
   "elevation_ft": 20,
   "continent": "EU",
   "iso_country": "GB",
   "iso_region": "GB-SCT",
   "municipality": "Lerwick",
   "gps_code": "EGPB",
   "iata_code": "LSI"
 },
 {
   "id": 2458,
   "ident": "EGPC",
   "type": "medium_airport",
   "name": "Wick Airport",
   "latitude_deg": 58.45890045,
   "longitude_deg": -3.093060017,
   "elevation_ft": 126,
   "continent": "EU",
   "iso_country": "GB",
   "iso_region": "GB-SCT",
   "municipality": "Wick",
   "gps_code": "EGPC",
   "iata_code": "WIC"
 },
 {
   "id": 2459,
   "ident": "EGPD",
   "type": "large_airport",
   "name": "Aberdeen Dyce Airport",
   "latitude_deg": 57.20190048,
   "longitude_deg": -2.197779894,
   "elevation_ft": 215,
   "continent": "EU",
   "iso_country": "GB",
   "iso_region": "GB-SCT",
   "municipality": "Aberdeen",
   "gps_code": "EGPD",
   "iata_code": "ABZ"
 },
 {
   "id": 2460,
   "ident": "EGPE",
   "type": "medium_airport",
   "name": "Inverness Airport",
   "latitude_deg": 57.54249954,
   "longitude_deg": -4.047500134,
   "elevation_ft": 31,
   "continent": "EU",
   "iso_country": "GB",
   "iso_region": "GB-SCT",
   "municipality": "Inverness",
   "gps_code": "EGPE",
   "iata_code": "INV"
 },
 {
   "id": 2461,
   "ident": "EGPF",
   "type": "large_airport",
   "name": "Glasgow International Airport",
   "latitude_deg": 55.87189865,
   "longitude_deg": -4.433060169,
   "elevation_ft": 26,
   "continent": "EU",
   "iso_country": "GB",
   "iso_region": "GB-SCT",
   "municipality": "Glasgow",
   "gps_code": "EGPF",
   "iata_code": "GLA"
 },
 {
   "id": 2462,
   "ident": "EGPH",
   "type": "large_airport",
   "name": "Edinburgh Airport",
   "latitude_deg": 55.95000076,
   "longitude_deg": -3.372499943,
   "elevation_ft": 135,
   "continent": "EU",
   "iso_country": "GB",
   "iso_region": "GB-SCT",
   "municipality": "Edinburgh",
   "gps_code": "EGPH",
   "iata_code": "EDI"
 },
 {
   "id": 2463,
   "ident": "EGPI",
   "type": "medium_airport",
   "name": "Islay Airport",
   "latitude_deg": 55.68190002,
   "longitude_deg": -6.256669998,
   "elevation_ft": 56,
   "continent": "EU",
   "iso_country": "GB",
   "iso_region": "GB-SCT",
   "municipality": "Port Ellen",
   "gps_code": "EGPI",
   "iata_code": "ILY"
 },
 {
   "id": 2464,
   "ident": "EGPK",
   "type": "medium_airport",
   "name": "Glasgow Prestwick Airport",
   "latitude_deg": 55.50939941,
   "longitude_deg": -4.586669922,
   "elevation_ft": 65,
   "continent": "EU",
   "iso_country": "GB",
   "iso_region": "GB-SCT",
   "municipality": "Glasgow",
   "gps_code": "EGPK",
   "iata_code": "PIK"
 },
 {
   "id": 2465,
   "ident": "EGPL",
   "type": "medium_airport",
   "name": "Benbecula Airport",
   "latitude_deg": 57.48109818,
   "longitude_deg": -7.362780094,
   "elevation_ft": 19,
   "continent": "EU",
   "iso_country": "GB",
   "iso_region": "GB-SCT",
   "municipality": "Balivanich",
   "gps_code": "EGPL",
   "iata_code": "BEB"
 },
 {
   "id": 2467,
   "ident": "EGPN",
   "type": "medium_airport",
   "name": "Dundee Airport",
   "latitude_deg": 56.45249939,
   "longitude_deg": -3.02583003,
   "elevation_ft": 17,
   "continent": "EU",
   "iso_country": "GB",
   "iso_region": "GB-SCT",
   "municipality": "Dundee",
   "gps_code": "EGPN",
   "iata_code": "DND"
 },
 {
   "id": 2468,
   "ident": "EGPO",
   "type": "medium_airport",
   "name": "Stornoway Airport",
   "latitude_deg": 58.21559906,
   "longitude_deg": -6.331110001,
   "elevation_ft": 26,
   "continent": "EU",
   "iso_country": "GB",
   "iso_region": "GB-SCT",
   "municipality": "Stornoway",
   "gps_code": "EGPO",
   "iata_code": "SYY"
 },
 {
   "id": 29173,
   "ident": "EGPR",
   "type": "medium_airport",
   "name": "Barra Airport",
   "latitude_deg": 57.02280045,
   "longitude_deg": -7.443059921,
   "elevation_ft": 5,
   "continent": "EU",
   "iso_country": "GB",
   "iso_region": "GB-SCT",
   "municipality": "Eoligarry",
   "gps_code": "EGPR",
   "iata_code": "BRR"
 },
 {
   "id": 2469,
   "ident": "EGPU",
   "type": "medium_airport",
   "name": "Tiree Airport",
   "latitude_deg": 56.49919891,
   "longitude_deg": -6.869170189,
   "elevation_ft": 38,
   "continent": "EU",
   "iso_country": "GB",
   "iso_region": "GB-SCT",
   "municipality": "Balemartine",
   "gps_code": "EGPU",
   "iata_code": "TRE"
 },
 {
   "id": 2475,
   "ident": "EGSH",
   "type": "large_airport",
   "name": "Norwich International Airport",
   "latitude_deg": 52.67580032,
   "longitude_deg": 1.282780051,
   "elevation_ft": 117,
   "continent": "EU",
   "iso_country": "GB",
   "iso_region": "GB-ENG",
   "municipality": "Norwich",
   "gps_code": "EGSH",
   "iata_code": "NWI"
 },
 {
   "id": 2476,
   "ident": "EGSS",
   "type": "large_airport",
   "name": "London Stansted Airport",
   "latitude_deg": 51.88499832,
   "longitude_deg": 0.234999999,
   "elevation_ft": 348,
   "continent": "EU",
   "iso_country": "GB",
   "iso_region": "GB-ENG",
   "municipality": "London",
   "gps_code": "EGSS",
   "iata_code": "STN"
 },
 {
   "id": 2481,
   "ident": "EGTE",
   "type": "large_airport",
   "name": "Exeter International Airport",
   "latitude_deg": 50.7344017,
   "longitude_deg": -3.413889885,
   "elevation_ft": 102,
   "continent": "EU",
   "iso_country": "GB",
   "iso_region": "GB-ENG",
   "municipality": "Exeter",
   "gps_code": "EGTE",
   "iata_code": "EXT"
 },
 {
   "id": 2493,
   "ident": "EGVN",
   "type": "large_airport",
   "name": "RAF Brize Norton",
   "latitude_deg": 51.75,
   "longitude_deg": -1.583619952,
   "elevation_ft": 288,
   "continent": "EU",
   "iso_country": "GB",
   "iso_region": "GB-ENG",
   "municipality": "Brize Norton",
   "gps_code": "EGVN",
   "iata_code": "BZZ"
 },
 {
   "id": 2512,
   "ident": "EGYP",
   "type": "medium_airport",
   "name": "Mount Pleasant Airport",
   "latitude_deg": -51.82279968,
   "longitude_deg": -58.44720078,
   "elevation_ft": 244,
   "continent": "SA",
   "iso_country": "FK",
   "iso_region": "FK-U-A",
   "municipality": "Mount Pleasant",
   "gps_code": "EGYP",
   "iata_code": "MPN"
 },
 {
   "id": 2513,
   "ident": "EHAM",
   "type": "large_airport",
   "name": "Amsterdam Airport Schiphol",
   "latitude_deg": 52.30860138,
   "longitude_deg": 4.76388979,
   "elevation_ft": -11,
   "continent": "EU",
   "iso_country": "NL",
   "iso_region": "NL-NH",
   "municipality": "Amsterdam",
   "gps_code": "EHAM",
   "iata_code": "AMS"
 },
 {
   "id": 2515,
   "ident": "EHBK",
   "type": "large_airport",
   "name": "Maastricht Aachen Airport",
   "latitude_deg": 50.9117012,
   "longitude_deg": 5.770140171,
   "elevation_ft": 375,
   "continent": "EU",
   "iso_country": "NL",
   "iso_region": "NL-LI",
   "municipality": "Maastricht",
   "gps_code": "EHBK",
   "iata_code": "MST"
 },
 {
   "id": 2518,
   "ident": "EHEH",
   "type": "large_airport",
   "name": "Eindhoven Airport",
   "latitude_deg": 51.45009995,
   "longitude_deg": 5.374529839,
   "elevation_ft": 74,
   "continent": "EU",
   "iso_country": "NL",
   "iso_region": "NL-NB",
   "municipality": "Eindhoven",
   "gps_code": "EHEH",
   "iata_code": "EIN"
 },
 {
   "id": 2519,
   "ident": "EHGG",
   "type": "medium_airport",
   "name": "Eelde Airport",
   "latitude_deg": 53.11970139,
   "longitude_deg": 6.579440117,
   "elevation_ft": 17,
   "continent": "EU",
   "iso_country": "NL",
   "iso_region": "NL-DR",
   "municipality": "Groningen",
   "gps_code": "EHGG",
   "iata_code": "GRQ"
 },
 {
   "id": 2524,
   "ident": "EHRD",
   "type": "medium_airport",
   "name": "Rotterdam Airport",
   "latitude_deg": 51.95690155,
   "longitude_deg": 4.437220097,
   "elevation_ft": -15,
   "continent": "EU",
   "iso_country": "NL",
   "iso_region": "NL-ZH",
   "municipality": "Rotterdam",
   "gps_code": "EHRD",
   "iata_code": "RTM"
 },
 {
   "id": 2530,
   "ident": "EICK",
   "type": "large_airport",
   "name": "Cork Airport",
   "latitude_deg": 51.84130096,
   "longitude_deg": -8.491109848,
   "elevation_ft": 502,
   "continent": "EU",
   "iso_country": "IE",
   "iso_region": "IE-C",
   "municipality": "Cork",
   "gps_code": "EICK",
   "iata_code": "ORK"
 },
 {
   "id": 2531,
   "ident": "EICM",
   "type": "medium_airport",
   "name": "Galway Airport",
   "latitude_deg": 53.30020142,
   "longitude_deg": -8.941590309,
   "elevation_ft": 81,
   "continent": "EU",
   "iso_country": "IE",
   "iso_region": "IE-G",
   "municipality": "Galway",
   "gps_code": "EICM",
   "iata_code": "GWY"
 },
 {
   "id": 2532,
   "ident": "EIDL",
   "type": "medium_airport",
   "name": "Donegal Airport",
   "latitude_deg": 55.0442009,
   "longitude_deg": -8.340999603,
   "elevation_ft": 30,
   "continent": "EU",
   "iso_country": "IE",
   "iso_region": "IE-DL",
   "municipality": "Donegal",
   "gps_code": "EIDL",
   "iata_code": "CFN"
 },
 {
   "id": 2533,
   "ident": "EIDW",
   "type": "large_airport",
   "name": "Dublin Airport",
   "latitude_deg": 53.42129898,
   "longitude_deg": -6.270070076,
   "elevation_ft": 242,
   "continent": "EU",
   "iso_country": "IE",
   "iso_region": "IE-D",
   "municipality": "Dublin",
   "gps_code": "EIDW",
   "iata_code": "DUB"
 },
 {
   "id": 2534,
   "ident": "EIKN",
   "type": "medium_airport",
   "name": "Ireland West Knock Airport",
   "latitude_deg": 53.91030121,
   "longitude_deg": -8.818490028,
   "elevation_ft": 665,
   "continent": "EU",
   "iso_country": "IE",
   "iso_region": "IE-MO",
   "municipality": "Charleston",
   "gps_code": "EIKN",
   "iata_code": "NOC"
 },
 {
   "id": 2535,
   "ident": "EIKY",
   "type": "medium_airport",
   "name": "Kerry Airport",
   "latitude_deg": 52.18090057,
   "longitude_deg": -9.523779869,
   "elevation_ft": 112,
   "continent": "EU",
   "iso_country": "IE",
   "iso_region": "IE-KY",
   "municipality": "Killarney",
   "gps_code": "EIKY",
   "iata_code": "KIR"
 },
 {
   "id": 2537,
   "ident": "EINN",
   "type": "large_airport",
   "name": "Shannon Airport",
   "latitude_deg": 52.70199966,
   "longitude_deg": -8.924819946,
   "elevation_ft": 46,
   "continent": "EU",
   "iso_country": "IE",
   "iso_region": "IE-CE",
   "municipality": "Limerick",
   "gps_code": "EINN",
   "iata_code": "SNN"
 },
 {
   "id": 2539,
   "ident": "EIWF",
   "type": "medium_airport",
   "name": "Waterford Airport",
   "latitude_deg": 52.18719864,
   "longitude_deg": -7.086959839,
   "elevation_ft": 119,
   "continent": "EU",
   "iso_country": "IE",
   "iso_region": "IE-WD",
   "municipality": "Waterford",
   "gps_code": "EIWF",
   "iata_code": "WAT"
 }
]
